{
    "BookMyShow": {
        "Venues": [{
                "VenueCode": "KSSK",
                "VenuName": "K Sera Sera Miniplex: Kurla",
                "VenueAddress": "Gr Floor, Kohinoor City Mall, Kirol Road, Kurla (W), LBS Marg, Mumbai, Maharashtra 400070, India",
                "VenueLegends": ";CAR;FOD;",
                "VenueDistance": "0.03",
                "Lat": "19.0817",
                "Long": "72.886",
                "UnitDistance": "km"
            }, {
                "VenueCode": "PVKM",
                "VenuName": "PVR: Market City, Kurla (Premiere)",
                "VenueAddress": "Phoenix Market City,LBS Marg, Near Kamani Junction, Kurla(W), Mumbai, Maharashtra 400070, India",
                "VenueLegends": ";",
                "VenueDistance": "0.52",
                "Lat": "19.0857",
                "Long": "72.8883",
                "UnitDistance": "km"
            }, {
                "VenueCode": "PVKG",
                "VenuName": "PVR: Market City, Kurla (Gold)",
                "VenueAddress": "Phoenix Market City, LBS Marg, Near Kamani Junction, Kurla(W), Mumbai, Maharashtra 400070, India",
                "VenueLegends": ";",
                "VenueDistance": "0.52",
                "Lat": "19.0857",
                "Long": "72.8883",
                "UnitDistance": "km"
            }, {
                "VenueCode": "MXSN",
                "VenuName": "Maxus Cinemas: Saki Naka",
                "VenueAddress": "90 Feet Road, Sakinaka Andheri(East), Near Mega Mart, Mumbai, Maharashtra 400072, India",
                "VenueLegends": ";REC;",
                "VenueDistance": "1.27",
                "Lat": "19.0934",
                "Long": "72.8838",
                "UnitDistance": "km"
            }, {
                "VenueCode": "KURL",
                "VenuName": "Bharat Cineplex: Kurla",
                "VenueAddress": "Station Rd, Kurla West, Mumbai, Maharashtra 400070, India",
                "VenueLegends": ";CAR;FOD;",
                "VenueDistance": "1.89",
                "Lat": "19.0659",
                "Long": "72.879",
                "UnitDistance": "km"
            }, {
                "VenueCode": "FMGH",
                "VenuName": "INOX: Neelyog, Ghatkopar(E)",
                "VenueAddress": "Neelyog Mall, Patel Chowk, R.B Road, Ghatkopar (E), Near Aircel Store, Mumbai, Maharashtra 400075, India",
                "VenueLegends": ";",
                "VenueDistance": "2.44",
                "Lat": "19.0852",
                "Long": "72.909",
                "UnitDistance": "km"
            }, {
                "VenueCode": "NCCM",
                "VenuName": "Natraj Cinema: Chembur",
                "VenueAddress": "N.G. Acharya Marg, Chembur, Near Chembur Railway Station, Mumbai, Maharashtra 400071, India",
                "VenueLegends": ";",
                "VenueDistance": "2.58",
                "Lat": "19.0624",
                "Long": "72.8992",
                "UnitDistance": "km"
            }, {
                "VenueCode": "CXGH",
                "VenuName": "Cinemax: R Odeon Mall, Ghatkopar (E)",
                "VenueAddress": "194 Vallabh Baug, Ghatkopar East, Mumbai, Maharashtra 400075, India",
                "VenueLegends": ";",
                "VenueDistance": "2.63",
                "Lat": "19.0795",
                "Long": "72.9108",
                "UnitDistance": "km"
            }, {
                "VenueCode": "INRC",
                "VenuName": "INOX: R-City, Ghatkopar",
                "VenueAddress": "R City Mall, Lal Bahadur Shastri Marg, Ghatkopar(W), Mumbai, Maharashtra 400086, India",
                "VenueLegends": ";",
                "VenueDistance": "3.69",
                "Lat": "19.0994",
                "Long": "72.9161",
                "UnitDistance": "km"
            }, {
                "VenueCode": "FNCM",
                "VenuName": "Fun Cinemas (Cinepolis): Chembur",
                "VenueAddress": "K Star Mall, 4th Floor, V.N.Purav Road, Chembur(E), Next to Diamond Garden, Mumbai, Maharashtra 400071, India",
                "VenueLegends": ";REC;CAR;FOD;",
                "VenueDistance": "3.70",
                "Lat": "19.0524",
                "Long": "72.9017",
                "UnitDistance": "km"
            }, {
                "VenueCode": "BISM",
                "VenuName": "BIG Cinemas: Sangam, Andheri (E)",
                "VenueAddress": "127, Chakala, Andheri Kurla Road, Andheri (East), Opposite ACME Plaza, Mumbai, Maharashtra 400059, India",
                "VenueLegends": ";KTP;",
                "VenueDistance": "4.02",
                "Lat": "19.1123",
                "Long": "72.8646",
                "UnitDistance": "km"
            }, {
                "VenueCode": "CXBE",
                "VenuName": "Cinemax: Bandra (E)",
                "VenueAddress": "RNA Corporate Park, Bandra(E), Near Bus Depot, Mumbai, Maharashtra 400051, India",
                "VenueLegends": ";WC;REC;CAR;",
                "VenueDistance": "4.33",
                "Lat": "19.0613",
                "Long": "72.851",
                "UnitDistance": "km"
            }, {
                "VenueCode": "BRVP",
                "VenuName": "Bahar Cinema: Vile Parle (E)",
                "VenueAddress": "HSBC Building, Junction of Sahar Airport Rd and Western Express Highway, Vile Parle, Near Garware Chowk, Mumbai, Maharashtra 400057, India",
                "VenueLegends": ";",
                "VenueDistance": "4.60",
                "Lat": "19.109",
                "Long": "72.8532",
                "UnitDistance": "km"
            }, {
                "VenueCode": "SCVP",
                "VenuName": "Sun City: Vile Parle",
                "VenueAddress": "M G Road, Vile Parle East, Opposite Shaan Cinema, Mumbai, Maharashtra 400057, India",
                "VenueLegends": ";",
                "VenueDistance": "4.84",
                "Lat": "19.1054",
                "Long": "72.8466",
                "UnitDistance": "km"
            }, {
                "VenueCode": "CXAE",
                "VenuName": "Cinemax: Andheri (E)",
                "VenueAddress": "Cinemax, Andheri-Kurla Road, Andheri(E), Behind Gurunanak Petrol Pump, Mumbai, Maharashtra 400059, India",
                "VenueLegends": ";WC;CAR;",
                "VenueDistance": "4.96",
                "Lat": "19.1165",
                "Long": "72.8565",
                "UnitDistance": "km"
            }, {
                "VenueCode": "CXSN",
                "VenuName": "PVR: Sion",
                "VenueAddress": "Sion, Circle, Opposite Peninsula Restaurant, Mumbai, Maharashtra 400022, India",
                "VenueLegends": ";WC;CAR;",
                "VenueDistance": "4.98",
                "Lat": "19.0417",
                "Long": "72.8643",
                "UnitDistance": "km"
            }, {
                "VenueCode": "ADWI",
                "VenuName": "BIG Cinemas: IMAX Screen, Wadala",
                "VenueAddress": "Bhakti Park, Anik Wadala Link Road, Mumbai, Maharashtra 400031, India",
                "VenueLegends": ";GAM;WC;CAR;",
                "VenueDistance": "5.54",
                "Lat": "19.0316",
                "Long": "72.8811",
                "UnitDistance": "km"
            }, {
                "VenueCode": "ADWD",
                "VenuName": "BIG Cinemas: IMAX, Wadala",
                "VenueAddress": "Bhakti Park, Anik Wadala Link Road,Mumbai, Maharashtra 400031, India",
                "VenueLegends": ";GAM;WC;CAR;",
                "VenueDistance": "5.54",
                "Lat": "19.0316",
                "Long": "72.8811",
                "UnitDistance": "km"
            }, {
                "VenueCode": "MTSU",
                "VenuName": "Movietime Suburbia: Bandra (W)",
                "VenueAddress": "Suburbia Mall, 206 and 265 Junction Of S V Road, And Linking Road, Bandra(W), Near Shoppers Stop, Mumbai, Maharashtra 400050, India",
                "VenueLegends": ";",
                "VenueDistance": "5.63",
                "Lat": "19.061",
                "Long": "72.837",
                "UnitDistance": "km"
            }, {
                "VenueCode": "NACB",
                "VenuName": "Nandi Cinema: Bandra (W)",
                "VenueAddress": "National Library, Road, Near Bandra Railway Station, Mumbai, Maharashtra 400050, India",
                "VenueLegends": ";",
                "VenueDistance": "5.70",
                "Lat": "19.0555",
                "Long": "72.8388",
                "UnitDistance": "km"
            }, {
                "VenueCode": "GLBS",
                "VenuName": "Globus Cinema: Bandra (W)",
                "VenueAddress": "Globus Cinema, Hill Road,Bandra West, Near Bhabha Hospital, Mumbai, Maharashtra 400050, India",
                "VenueLegends": ";",
                "VenueDistance": "6.16",
                "Lat": "19.0562",
                "Long": "72.8339",
                "UnitDistance": "km"
            }, {
                "VenueCode": "PCMH",
                "VenuName": "Paradise E-Square Cinema: Mahim",
                "VenueAddress": "L J Road, Opp Sitladevi Temple, Mahim (W), Mumbai, Maharashtra 400016, India",
                "VenueLegends": ";CAR;FOD;",
                "VenueDistance": "6.71",
                "Lat": "19.0372",
                "Long": "72.8426",
                "UnitDistance": "km"
            }, {
                "VenueCode": "ADHU",
                "VenuName": "BIG Cinemas: Huma - Kanjurmarg",
                "VenueAddress": "Huma Mall, LBS Road, Kanjurmarg (W), Near Kanjurmarg Railway Station, Mumbai, Maharashtra 400078, India",
                "VenueLegends": ";WC;CAR;",
                "VenueDistance": "6.88",
                "Lat": "19.1302",
                "Long": "72.9266",
                "UnitDistance": "km"
            }, {
                "VenueCode": "PVJH",
                "VenuName": "PVR: Dynamix, Juhu",
                "VenueAddress": "5th Floor, Dynamix Mall, Near Chandan Cinema, J M Marg, Juhu, Mumbai, Maharashtra 400049, India",
                "VenueLegends": ";",
                "VenueDistance": "7.21",
                "Lat": "19.1149",
                "Long": "72.8273",
                "UnitDistance": "km"
            }, {
                "VenueCode": "CNJH",
                "VenuName": "Chandan Cinema: Juhu",
                "VenueAddress": "Irish Park, West Road, Juhu, Near Iskcon Juhu, Mumbai, Maharashtra 400049, India",
                "VenueLegends": ";CAR;",
                "VenueDistance": "7.21",
                "Lat": "19.1148",
                "Long": "72.8269",
                "UnitDistance": "km"
            }, {
                "VenueCode": "CLMM",
                "VenuName": "Citylight Cinema: Mahim",
                "VenueAddress": "Ashford Chambers, L.J. Road, Mahim (W), Mumbai, Maharashtra 400016, India",
                "VenueLegends": ";CAR;FOD;",
                "VenueDistance": "7.28",
                "Lat": "19.0305",
                "Long": "72.8415",
                "UnitDistance": "km"
            }, {
                "VenueCode": "MTSC",
                "VenuName": "Movietime Star City: Matunga (W)",
                "VenueAddress": "Junction of Manmala Tank Road, Taikalwadi Road, Matunga(W), Near Maharashtra Municipal School, Mumbai, Maharashtra 400016, India",
                "VenueLegends": ";",
                "VenueDistance": "7.42",
                "Lat": "19.0283",
                "Long": "72.8442",
                "UnitDistance": "km"
            }, {
                "VenueCode": "KTMM",
                "VenuName": "24 Karat: Jogeshwari",
                "VenueAddress": "181 Next To Jogeshwari Tel. Ex, S.V.Road Jogeshwari (W), Near Yes Bank, Mumbai, Maharashtra 400102, India",
                "VenueLegends": ";WC;CAR;",
                "VenueDistance": "7.92",
                "Lat": "19.1411",
                "Long": "72.8437",
                "UnitDistance": "km"
            }, {
                "VenueCode": "FNAN",
                "VenuName": "Fun Cinemas (Cinepolis): Andheri(W)",
                "VenueAddress": "Plot No.844\/4,4, Veera Desai Road, Andheri(W), Near ICICI Bank ATM, Mumbai, Maharashtra 400053, India",
                "VenueLegends": ";GAM;WC;CAR;",
                "VenueDistance": "8.20",
                "Lat": "19.1358",
                "Long": "72.8332",
                "UnitDistance": "km"
            }, {
                "VenueCode": "FMDR",
                "VenuName": "INOX: Nakshatra Mall, Dadar (W)",
                "VenueAddress": "2nd Floor, Nakshatra Cine Shop, Ranade Road, Dadar (W), Near Railway Station, Mumbai, Maharashtra 400028, India",
                "VenueLegends": ";WC;CAR;",
                "VenueDistance": "8.32",
                "Lat": "19.0199",
                "Long": "72.8413",
                "UnitDistance": "km"
            }, {
                "VenueCode": "PVAW",
                "VenuName": "PVR: Citi Mall, Andheri (W)",
                "VenueAddress": "Citi Mall, Survey No. 41, Andheri Link Road, Andheri(W), Near Bhaktivedanta Swami Mission School, Mumbai, Maharashtra 400053, India",
                "VenueLegends": ";",
                "VenueDistance": "8.52",
                "Lat": "19.1387",
                "Long": "72.8315",
                "UnitDistance": "km"
            }, {
                "VenueCode": "SCDE",
                "VenuName": "Sharada Cinema: Dadar (E)",
                "VenueAddress": "172, MMGS Marg, Naigaon, Dadar (East), Near ICICI Bank ATM, Mumbai, Maharashtra 400014, India",
                "VenueLegends": ";",
                "VenueDistance": "8.61",
                "Lat": "19.0139",
                "Long": "72.8463",
                "UnitDistance": "km"
            }, {
                "VenueCode": "CCDM",
                "VenuName": "Chitra Cinema: Dadar(E)",
                "VenueAddress": "198, Dr Ambedkar Road, Dadar (E), Mumbai, Maharashtra 400014, India",
                "VenueLegends": ";",
                "VenueDistance": "8.72",
                "Lat": "19.0136",
                "Long": "72.8441",
                "UnitDistance": "km"
            }, {
                "VenueCode": "CXAG",
                "VenuName": "PVR ICON: Versova (Gold)",
                "VenueAddress": "Infinity Mall, New Link Road, Next To Citi Mall, Andheri (W), Near Lotus Petrol Pump, Mumbai, Maharashtra 400036, India",
                "VenueLegends": ";GAM;WC;REC;CAR;FOD;",
                "VenueDistance": "8.84",
                "Lat": "19.1416",
                "Long": "72.8312",
                "UnitDistance": "km"
            }, {
                "VenueCode": "CXAW",
                "VenuName": "PVR ICON: Versova",
                "VenueAddress": "Infinity Mall, New Link Road, Opposite Crystal Plaza, Next To Citi Mall, Andheri (W), Near Lotus Petrol Pump, Mumbai, Maharashtra 400036, India",
                "VenueLegends": ";GAM;WC;CAR;FOD;",
                "VenueDistance": "8.84",
                "Lat": "19.1416",
                "Long": "72.8312",
                "UnitDistance": "km"
            }, {
                "VenueCode": "BIMG",
                "VenuName": "BIG Cinemas Moviestar: Goregaon",
                "VenueAddress": "Plot No 11, Ram Mandir Road,Off S V Road, Near Goregaon Fire Station, Mumbai, Maharashtra 400062, India",
                "VenueLegends": ";GAM;CAR;FOD;",
                "VenueDistance": "8.86",
                "Lat": "19.1515",
                "Long": "72.8463",
                "UnitDistance": "km"
            }, {
                "VenueCode": "MTHB",
                "VenuName": "Movietime: The Hub, Goregaon",
                "VenueAddress": "3rd Flr, The Hub, Nirlon Compound, Western Express Highway, Goregaon(E), Near Goregaon East Police Station, Mumbai, Maharashtra 400063, India",
                "VenueLegends": ";GAM;CAR;FOD;",
                "VenueDistance": "8.90",
                "Lat": "19.1567",
                "Long": "72.8567",
                "UnitDistance": "km"
            }, {
                "VenueCode": "KBBH",
                "VenuName": "Carnival Cinemas: Bhandup",
                "VenueAddress": "2nd Floor, Dreams The Mall, L.B.S Marg, Near Bhandup Railway Station, Mumbai, Maharashtra 400078, India",
                "VenueLegends": ";REC;FOD;",
                "VenueDistance": "8.92",
                "Lat": "19.1463",
                "Long": "72.9367",
                "UnitDistance": "km"
            }, {
                "VenueCode": "GDCD",
                "VenuName": "Gold Cinema: Dadar (E)",
                "VenueAddress": "9\/26, Kumar Fun and Shop, 2nd Floor, Dr. Ambedkar Rd., Naigaon, Dadar (East), Mumbai, Maharashtra 400014, India",
                "VenueLegends": ";",
                "VenueDistance": "9.20",
                "Lat": "19.0096",
                "Long": "72.8423",
                "UnitDistance": "km"
            }, {
                "VenueCode": "CXGW",
                "VenuName": "Cinemax: Goregaon (W)",
                "VenueAddress": "Next To Goregaon Police Station, Goregaon (W), Mumbai, Maharashtra 400062, India",
                "VenueLegends": ";WC;CAR;",
                "VenueDistance": "9.50",
                "Lat": "19.1576",
                "Long": "72.8452",
                "UnitDistance": "km"
            }, {
                "VenueCode": "PCDR",
                "VenuName": "Premiere Cinema: Dadar (E)",
                "VenueAddress": "Rangoli Time Complex, Opp. Parel Fly Over, Dr. Ambedkar Road, Dadar(E), Nr. Hindmata Market, Mumbai, Maharashtra 400012, India",
                "VenueLegends": ";",
                "VenueDistance": "9.55",
                "Lat": "19.0068",
                "Long": "72.8405",
                "UnitDistance": "km"
            }, {
                "VenueCode": "CCOW",
                "VenuName": "Carnival Cinemas: Oshiwara",
                "VenueAddress": "2nd Floor, Harmony Mall, Bhagat Singh Nagar, New Link Road, Near Oshiwara Depot, Mumbai, Maharashtra 400104, India",
                "VenueLegends": ";",
                "VenueDistance": "10.02",
                "Lat": "19.1575",
                "Long": "72.8349",
                "UnitDistance": "km"
            }, {
                "VenueCode": "DPLP",
                "VenuName": "Matterden CFC: Lower Parel",
                "VenueAddress": "Deepak Cinema, 38 N M Joshi Marg, Lower Parel, Mumbai, Maharashtra 400013, India",
                "VenueLegends": ";CAR;FOD;",
                "VenueDistance": "10.20",
                "Lat": "19.006",
                "Long": "72.8308",
                "UnitDistance": "km"
            }, {
                "VenueCode": "PVGR",
                "VenuName": "PVR: Oberoi, Goregaon (E)",
                "VenueAddress": "3rd Floor, Oberoi Mall, Off Western Express Highway, Goregaon(E), Near Indian Oil Petrol Pump, Mumbai, Maharashtra 400063, India",
                "VenueLegends": ";",
                "VenueDistance": "10.58",
                "Lat": "19.1738",
                "Long": "72.8606",
                "UnitDistance": "km"
            }, {
                "VenueCode": "PVML",
                "VenuName": "PVR: Nirmal Lifestyle, Mulund (W)",
                "VenueAddress": "Nirmal Lifestyle Mall, Mulund Colony, LBS Road, Mulund(W), Mumbai, Maharashtra 400080, India",
                "VenueLegends": ";",
                "VenueDistance": "10.88",
                "Lat": "19.167",
                "Long": "72.9369",
                "UnitDistance": "km"
            }, {
                "VenueCode": "FMMA",
                "VenuName": "INOX: Inorbit Mall, Malad (W)",
                "VenueAddress": "Inorbit Mall, Goregaon Malad Link Road, Near Shoppers Stop, Mumbai, Maharashtra 400064, India",
                "VenueLegends": ";GAM;WC;REC;CAR;FOD;",
                "VenueDistance": "11.42",
                "Lat": "19.1725",
                "Long": "72.8355",
                "UnitDistance": "km"
            }, {
                "VenueCode": "PVPH",
                "VenuName": "PVR: Phoenix, Lower Parel",
                "VenueAddress": "High Street Phoenix, 462 Senapati Bapat Marg, Lower Parel (W), Mumbai, Maharashtra 400013, India",
                "VenueLegends": ";",
                "VenueDistance": "11.62",
                "Lat": "18.9953",
                "Long": "72.8242",
                "UnitDistance": "km"
            }, {
                "VenueCode": "PVMX",
                "VenuName": "PVR: Phoenix, Kotak IMAX, Lower Parel",
                "VenueAddress": "High Street Phoenix, 462 Senapati Bapat Marg, Lower Parel (W), Mumbai, Maharashtra 400013, India",
                "VenueLegends": ";",
                "VenueDistance": "11.62",
                "Lat": "18.9953",
                "Long": "72.8242",
                "UnitDistance": "km"
            }, {
                "VenueCode": "FMVS",
                "VenuName": "INOX: Raghuleela Mall, Vashi",
                "VenueAddress": "Opp Vashi Railway Stn, Vashi, Near Baskin Robbins, Mumbai, Maharashtra 400703, India",
                "VenueLegends": ";GAM;WC;REC;CAR;FOD;",
                "VenueDistance": "11.81",
                "Lat": "19.0641",
                "Long": "72.997",
                "UnitDistance": "km"
            }, {
                "VenueCode": "MAJB",
                "VenuName": "Mukta A2 Cinemas: Jai Hind, Lalbaugh",
                "VenueAddress": "Dr.B.R.Ambedkar Road, Lalbaugh, Near Voltas Building, Mumbai, Maharashtra 400033, India",
                "VenueLegends": ";CAR;FOD;",
                "VenueDistance": "11.85",
                "Lat": "18.986",
                "Long": "72.8359",
                "UnitDistance": "km"
            }, {
                "VenueCode": "KCMA",
                "VenuName": "Kasturba Cinema: Malad",
                "VenueAddress": "Above Vasant Plaza shopping Centre, Station Road, Opp. Natraj Market, Mumbai, Maharashtra 400064, India",
                "VenueLegends": ";",
                "VenueDistance": "12.46",
                "Lat": "19.1879",
                "Long": "72.8475",
                "UnitDistance": "km"
            }, {
                "VenueCode": "SACM",
                "VenuName": "Sangeeta Cineplex : Malad",
                "VenueAddress": "Dutta Mandir Road, Malad east, Mumbai, Maharashtra 400097, India",
                "VenueLegends": ";FOD;",
                "VenueDistance": "12.49",
                "Lat": "19.1901",
                "Long": "72.8539",
                "UnitDistance": "km"
            }, {
                "VenueCode": "CXMI",
                "VenuName": "Cinemax: Infiniti Mall, Malad (W)",
                "VenueAddress": "Survey No 504, Link Road, Malad (W), Near D-Mart, Mumbai, Maharashtra 400065, India",
                "VenueLegends": ";GAM;REC;CAR;FOD;",
                "VenueDistance": "12.82",
                "Lat": "19.1865",
                "Long": "72.8356",
                "UnitDistance": "km"
            }, {
                "VenueCode": "PCBY",
                "VenuName": "Palace Cinema: Byculla",
                "VenueAddress": "202, Jijabai Marg, Byculla, Near Byculla Railway Station, Mumbai, Maharashtra 400027, India",
                "VenueLegends": ";CAR;",
                "VenueDistance": "12.99",
                "Lat": "18.9759",
                "Long": "72.8333",
                "UnitDistance": "km"
            }, {
                "VenueCode": "FSCS",
                "VenuName": "Fun Square Cinema: Sanpada",
                "VenueAddress": "1st Floor, Sanpada Railway Station Complex, Sanpada, Navi Mumbai, Maharashtra 400705, India",
                "VenueLegends": ";FOD;",
                "VenueDistance": "13.03",
                "Lat": "19.0661",
                "Long": "73.0089",
                "UnitDistance": "km"
            }, {
                "VenueCode": "MTMA",
                "VenuName": "Movietime: Malad",
                "VenueAddress": "Jagdamba Complex, Evershine Kanchpada, Link Road, Near Axis Bank ATM, Mumbai, Maharashtra 400064, India",
                "VenueLegends": ";",
                "VenueDistance": "13.06",
                "Lat": "19.1893",
                "Long": "72.8347",
                "UnitDistance": "km"
            }, {
                "VenueCode": "BMKK",
                "VenuName": "Balaji Movieplex: Kopar Khairane",
                "VenueAddress": "90, Sector 9, Kopar Khairane, Regency Road, Near Railway Station, Mumbai, Maharashtra 400709, India",
                "VenueLegends": ";WC;CAR;FOD;",
                "VenueDistance": "13.19",
                "Lat": "19.101",
                "Long": "73.0102",
                "UnitDistance": "km"
            }, {
                "VenueCode": "ADRW",
                "VenuName": "BIG Cinemas: Runwal, Mulund",
                "VenueAddress": "3rd Floor, R Mall, L.B.S Marg, Mulund(W), Mumbai, Maharashtra 400080, India",
                "VenueLegends": ";WC;CAR;",
                "VenueDistance": "13.30",
                "Lat": "19.1842",
                "Long": "72.9517",
                "UnitDistance": "km"
            }, {
                "VenueCode": "PVMK",
                "VenuName": "PVR: Milap, Kandivali(W)",
                "VenueAddress": "PVR Cinemas, 2nd flr, Old Milap Cinemas, S V Road, Kandivali (W), Near Reliance Digital Xpress, Mumbai, Maharashtra 400067, India",
                "VenueLegends": ";",
                "VenueDistance": "13.34",
                "Lat": "19.1961",
                "Long": "72.8471",
                "UnitDistance": "km"
            }, {
                "VenueCode": "CXKE",
                "VenuName": "Cinemax: Growel, Kandivali (E)",
                "VenueAddress": "Akurli Road, Western Express Highway, Kandivali(E), Mumbai, Maharashtra 400101, India",
                "VenueLegends": ";GAM;WC;REC;CAR;",
                "VenueDistance": "13.74",
                "Lat": "19.2033",
                "Long": "72.8601",
                "UnitDistance": "km"
            }, {
                "VenueCode": "CXKW",
                "VenuName": "Cinemax: Kandivali (W)",
                "VenueAddress": "Sona Shopping Centre, Trikamdas Road, Near Railway Crossing, Mumbai, Maharashtra 400067, India",
                "VenueLegends": ";WC;CAR;",
                "VenueDistance": "13.75",
                "Lat": "19.2009",
                "Long": "72.8508",
                "UnitDistance": "km"
            }, {
                "VenueCode": "MCTK",
                "VenuName": "Miraj Thakur Cinemas: Kandivali (E)",
                "VenueAddress": "No 120, Thakur Mall, D P Road, Thakur Village, Kandivali East, Near Mcdonalds Family Restaurant,  Opposite D Mart, Mumbai, Maharashtra 400101, India",
                "VenueLegends": ";",
                "VenueDistance": "14.20",
                "Lat": "19.2089",
                "Long": "72.8725",
                "UnitDistance": "km"
            }, {
                "VenueCode": "CXEM",
                "VenuName": "Cinemax: Eternity Mall, Thane",
                "VenueAddress": "Teen Haath Naka, Junction of Eastern Express Highway and LBS Marg, Mumbai, Maharashtra 400602, India",
                "VenueLegends": ";GAM;WC;REC;CAR;",
                "VenueDistance": "14.21",
                "Lat": "19.1871",
                "Long": "72.9625",
                "UnitDistance": "km"
            }, {
                "VenueCode": "PGCD",
                "VenuName": "Premier Gold: Dongri",
                "VenueAddress": "Navroji Hill Rd., No 5 ,Opp. Sandhurst Rd. Railway Station, Nr. Dongri Market, Mumbai, Maharashtra 400009, India",
                "VenueLegends": ";",
                "VenueDistance": "14.32",
                "Lat": "18.9608",
                "Long": "72.8381",
                "UnitDistance": "km"
            }, {
                "VenueCode": "FMTK",
                "VenuName": "INOX: Thakur Movie, Kandivali (E)",
                "VenueAddress": "Vishnu Shivam Mall, Thakur Village,  Kandivali (E), Dattani Park, Mumbai, Maharashtra 400021, India",
                "VenueLegends": ";WC;REC;CAR;",
                "VenueDistance": "14.54",
                "Lat": "19.2123",
                "Long": "72.8716",
                "UnitDistance": "km"
            }, {
                "VenueCode": "ANDC",
                "VenuName": "Anand Cinema: Thane",
                "VenueAddress": "Kopri Colony, Gidwani Road, Opposite Thane Station, Mumbai, Maharashtra 400603, India",
                "VenueLegends": ";CAR;FOD;",
                "VenueDistance": "14.79",
                "Lat": "19.1849",
                "Long": "72.975",
                "UnitDistance": "km"
            }, {
                "VenueCode": "SCGR",
                "VenuName": "Super Cinema: Grant Road",
                "VenueAddress": "Maulana Shoukat Ali Road, Grant Road, Near Union Bank Of India, Mumbai, Maharashtra 400007, India",
                "VenueLegends": ";CAR;",
                "VenueDistance": "14.84",
                "Lat": "18.9628",
                "Long": "72.8213",
                "UnitDistance": "km"
            }, {
                "VenueCode": "KBBV",
                "VenuName": "Carnival Cinemas: Borivali (E)",
                "VenueAddress": "Western Express Highway, Borivali East, Opp Sai Dhaam Temple,Mumbai, Maharashtra 400066, India",
                "VenueLegends": ";REC;FOD;",
                "VenueDistance": "15.03",
                "Lat": "19.216",
                "Long": "72.8677",
                "UnitDistance": "km"
            }, {
                "VenueCode": "FMRL",
                "VenuName": "INOX: Raghuleela Mall, Kandivali (W)",
                "VenueAddress": "Off S.V.Road, Kandivali (W), Behind Poisar Bus Depot, Mumbai, Maharashtra 400067, India",
                "VenueLegends": ";GAM;WC;CAR;FOD;",
                "VenueDistance": "15.09",
                "Lat": "19.2132",
                "Long": "72.8492",
                "UnitDistance": "km"
            }, {
                "VenueCode": "GDTH",
                "VenuName": "Gold  Cinema: Shivaji Road, Thane (W)",
                "VenueAddress": "Prabhat Plaza 3rd Floor, Station Road,Shivaji Road, Near Talao Pali, Mumbai, Maharashtra 400601, India",
                "VenueLegends": ";",
                "VenueDistance": "15.44",
                "Lat": "19.1905",
                "Long": "72.9766",
                "UnitDistance": "km"
            }, {
                "VenueCode": "TCPZ",
                "VenuName": "Central Plaza: Girgaon, Mumbai",
                "VenueAddress": "Opp. Girgaon Church, R R Roy Marg, Girgaon Chowpatty, Mumbai, Maharashtra 400004, India",
                "VenueLegends": ";CAR;FOD;",
                "VenueDistance": "15.73",
                "Lat": "18.9547",
                "Long": "72.8187",
                "UnitDistance": "km"
            }, {
                "VenueCode": "ROXY",
                "VenuName": "Roxy Cinema: Charni Road",
                "VenueAddress": "5th Floor, Jewel Building, Maharshi Karve Road, Opera House, Mumbai, Maharashtra 400004, India",
                "VenueLegends": ";",
                "VenueDistance": "15.82",
                "Lat": "18.9551",
                "Long": "72.8166",
                "UnitDistance": "km"
            }, {
                "VenueCode": "INKO",
                "VenuName": "INOX: Korum Mall, Eastern Express Highway, Thane",
                "VenueAddress": "Korum Mall, Mangal Pandey Road,Thane (W), Off Eastern Express Highway, Mumbai, Maharashtra 400606, India",
                "VenueLegends": ";",
                "VenueDistance": "15.91",
                "Lat": "19.2042",
                "Long": "72.9652",
                "UnitDistance": "km"
            }, {
                "VenueCode": "ADMP",
                "VenuName": "BIG Cinemas: Metro - Ebony Lounge",
                "VenueAddress": "M.G.Road, Dhobitalao Junction, Near Cama Hospital, Mumbai, Maharashtra 400020, India",
                "VenueLegends": ";WC;REC;CAR;FOD;",
                "VenueDistance": "16.42",
                "Lat": "18.944",
                "Long": "72.8291",
                "UnitDistance": "km"
            }, {
                "VenueCode": "ADMT",
                "VenuName": "BIG Cinemas: Metro",
                "VenueAddress": "M.G.Road, Dhobitalao Junction,Mumbai, Maharashtra 400020, India",
                "VenueLegends": ";WC;REC;CAR;FOD;",
                "VenueDistance": "16.52",
                "Lat": "18.9431",
                "Long": "72.8287",
                "UnitDistance": "km"
            }, {
                "VenueCode": "CPIT",
                "VenuName": "Cinepolis: IMAX Viviana Mall, Thane",
                "VenueAddress": "Eastern Express Highway, Beside Jupiter Hospital, Thane (W), Mumbai, Maharashtra 400606, India",
                "VenueLegends": ";",
                "VenueDistance": "16.71",
                "Lat": "19.2085",
                "Long": "72.9713",
                "UnitDistance": "km"
            }, {
                "VenueCode": "CPVV",
                "VenuName": "Cinepolis: VIP Viviana Mall, Thane",
                "VenueAddress": "Eastern Express Highway, Thane (W), Beside Jupiter Hospital, Mumbai, Maharashtra 400606, India",
                "VenueLegends": ";",
                "VenueDistance": "16.71",
                "Lat": "19.2085",
                "Long": "72.9713",
                "UnitDistance": "km"
            }, {
                "VenueCode": "CPDX",
                "VenuName": "Cinepolis: 4DX Viviana Mall, Thane",
                "VenueAddress": "Eastern Express Highway, Beside Jupiter Hospital, Thane (W), Mumbai, Maharashtra 400606, India",
                "VenueLegends": ";",
                "VenueDistance": "16.71",
                "Lat": "19.2085",
                "Long": "72.9713",
                "UnitDistance": "km"
            }, {
                "VenueCode": "CPVM",
                "VenuName": "Cinepolis: Viviana Mall, Thane",
                "VenueAddress": "Eastern Express Highway, Thane (W), Beside Jupiter Hospital, Mumbai, Maharashtra 400606, India",
                "VenueLegends": ";",
                "VenueDistance": "16.71",
                "Lat": "19.2085",
                "Long": "72.9713",
                "UnitDistance": "km"
            }, {
                "VenueCode": "EXSR",
                "VenuName": "New Excelsior Cinema: Fort",
                "VenueAddress": "A K Nayak Marg, Near VT Station Fort, Near Central Bank Of India, Mumbai, Maharashtra 400001, India",
                "VenueLegends": ";",
                "VenueDistance": "16.87",
                "Lat": "18.9375",
                "Long": "72.8336",
                "UnitDistance": "km"
            }, {
                "VenueCode": "STER",
                "VenuName": "Sterling Cineplex: Fort",
                "VenueAddress": "Fort, 65, Murzaban Road, Opposite VT Station, Mumbai, Maharashtra 400001, India",
                "VenueLegends": ";WC;CAR;FOD;",
                "VenueDistance": "16.90",
                "Lat": "18.9384",
                "Long": "72.8331",
                "UnitDistance": "km"
            }, {
                "VenueCode": "SNGL",
                "VenuName": "Gold Cinema: Sona Borivali (E)",
                "VenueAddress": "Shantivan, Goyal Trade Centre, Borivili East, Near National Park, Mumbai, Maharashtra 400066, India",
                "VenueLegends": ";",
                "VenueDistance": "17.17",
                "Lat": "19.2346",
                "Long": "72.865",
                "UnitDistance": "km"
            }, {
                "VenueCode": "MXBO",
                "VenuName": "Maxus Cinemas: Borivali (W)",
                "VenueAddress": "Zoom Plaza Mall, 4th Floor, Borivali (W), Opp. Gorai Depot, L.T. Road, Mumbai, Maharashtra 400092, India",
                "VenueLegends": ";CAR;FOD;",
                "VenueDistance": "17.73",
                "Lat": "19.232",
                "Long": "72.8287",
                "UnitDistance": "km"
            }, {
                "VenueCode": "THAB",
                "VenuName": "CinemaStar: Majhiwada Thane",
                "VenueAddress": "3rd flr. High Street Mall (Near Big Bazar), Kapurbavdi Majhiwada, Mumbai, Maharashtra 400607, India",
                "VenueLegends": ";CAR;",
                "VenueDistance": "18.03",
                "Lat": "19.2173",
                "Long": "72.9812",
                "UnitDistance": "km"
            }, {
                "VenueCode": "CXWM",
                "VenuName": "Cinemax: Wonder Mall, Thane",
                "VenueAddress": "Near Safe Way Motors, Ghodbunder Road, Kapur Bawadi Naka, Opposite Bank Of Baroda, Mumbai, Maharashtra 400601, India",
                "VenueLegends": ";WC;CAR;",
                "VenueDistance": "18.18",
                "Lat": "19.2211",
                "Long": "72.977",
                "UnitDistance": "km"
            }, {
                "VenueCode": "RGCM",
                "VenuName": "Regal Cinema: Colaba",
                "VenueAddress": "Shahid Bhagat Singh Road, Apollo Bunder, Opposite Prince Of Wales Museum, Mumbai, Maharashtra 400005, India",
                "VenueLegends": ";",
                "VenueDistance": "18.27",
                "Lat": "18.9248",
                "Long": "72.8325",
                "UnitDistance": "km"
            }, {
                "VenueCode": "INNP",
                "VenuName": "INOX: CR2, Nariman Point",
                "VenueAddress": "Opp. Bajaj Bhavan, Nariman Point, CR 2 Mall, Mumbai, Maharashtra 400021, India",
                "VenueLegends": ";WC;CAR;",
                "VenueDistance": "18.41",
                "Lat": "18.9266",
                "Long": "72.8229",
                "UnitDistance": "km"
            }, {
                "VenueCode": "MTGD",
                "VenuName": "Movietime: Dahisar (E)",
                "VenueAddress": "Old Rajeshri Cinema Building, Maratha Colony Road, Dahisar East, Near Ravindra Hotel, Mumbai, Maharashtra 400068, India",
                "VenueLegends": ";",
                "VenueDistance": "19.06",
                "Lat": "19.2519",
                "Long": "72.8629",
                "UnitDistance": "km"
            }, {
                "VenueCode": "ADKH",
                "VenuName": "BIG Cinemas: Little World, Kharghar",
                "VenueAddress": "Little World Mall, Plot no.21,Sector II, Kharghar, Near Hotel Supreme Heritage, Mumbai, Maharashtra 410210, India",
                "VenueLegends": ";WC;REC;CAR;FOD;",
                "VenueDistance": "19.59",
                "Lat": "19.0517",
                "Long": "73.0701",
                "UnitDistance": "km"
            }, {
                "VenueCode": "INKH",
                "VenuName": "INOX: Glomax Mall, Kharghar",
                "VenueAddress": "Plot1\/19, Sector 2, Kharghar, Near Bharat Petroleum Petrol Pump, Mumbai, Maharashtra 400705, India",
                "VenueLegends": ";WC;CAR;FOD;",
                "VenueDistance": "19.71",
                "Lat": "19.0305",
                "Long": "73.0657",
                "UnitDistance": "km"
            }]
    }
}